{
"type": "FeatureCollection",
"name": "flower_survey",
"crs": { "type": "name", "properties": { "name": "urn:ogc:def:crs:OGC:1.3:CRS84" } },
"features": [
{ "type": "Feature", "properties": { "site_id": "{5fc90cfc-bdc9-4fd3-9efe-95f80d66cdf3}", "name": "テスト花", "status": "散り始め", "radius_m": 100.0, "date": "2026-04-10", "photo": "files/20260411140446766_PXL_20260403_082249689.jpg", "memo": "テスト" }, "geometry": { "type": "Point", "coordinates": [ 139.173114659867338, 35.848560420937474, 0.0 ] } },
{ "type": "Feature", "properties": { "site_id": "{03b061e3-4926-4139-a156-573cfaea7f4c}", "name": "テスト花A", "status": "つぼみ", "radius_m": 50.0, "date": "2026-03-31", "photo": "files/20260411142110049_PXL_20260402_030445683.jpg", "memo": "テスト" }, "geometry": { "type": "Point", "coordinates": [ 139.159783114172171, 35.857001429153101, 0.0 ] } },
{ "type": "Feature", "properties": { "site_id": "{9943a5c1-2f84-477c-b201-081ed13b2698}", "name": "テスト花B", "status": "咲き始め", "radius_m": 40.0, "date": "2026-04-09", "photo": "files/20260411142151177_PXL_20260401_224509482.jpg", "memo": "テスト" }, "geometry": { "type": "Point", "coordinates": [ 139.171548159297032, 35.869490009121691, 0.0 ] } },
{ "type": "Feature", "properties": { "site_id": "{b8cd5e99-ce12-4a60-b2f8-0f3745fdeba8}", "name": "テスト花B", "status": "見頃", "radius_m": 40.0, "date": "2026-04-11", "photo": "files/20260411142309885_PXL_20260401_205304901.jpg", "memo": "テスト" }, "geometry": { "type": "Point", "coordinates": [ 139.178563828390622, 35.866159662615395, 0.0 ] } },
{ "type": "Feature", "properties": { "site_id": "{25dadb44-ad3d-4e9a-8aaa-c3e89233c445}", "name": "テスト花C", "status": "散り始め", "radius_m": 30.0, "date": "2026-04-14", "photo": "files/20260411142445319_PXL_20260330_051658843.jpg", "memo": "テスト" }, "geometry": { "type": "Point", "coordinates": [ 139.165067883601921, 35.863190232556676, 0.0 ] } }
]
}
